ID,LAT,LON,NAME,Total Days,Missing Days,Missing %,Distance_to_Coast_km,Region
US1ALBW0045,30.488,-87.8002,SILVERHILL 5.0 SW,9,9,100.0,138.09120516263965,Rural
US1ALTS0003,33.0786,-87.4009,HOLT 11.4 SSE,9,9,100.0,362.5588747169214,Rural
US1LALF0010,29.702,-90.6262,RACELAND 2.1 WSW,9,9,100.0,148.1442678673203,Rural
US1LATR0015,29.635,-90.7405,HOUMA 4.4 NNW,9,9,100.0,161.21276085505613,Rural
US1MSHR0022,30.6592,-89.1297,SAUCIER 1.7 NNE,9,9,100.0,51.503653384161595,Rural
US1MSNW0005,32.5706,-89.1432,UNION 1.6 W,9,8,88.89,263.65381339805344,Rural
US1MSRN0013,32.3471,-89.9874,BRANDON 4.7 NNE,9,9,100.0,250.19698357186496,Rural
US1TXAR0007,28.0357,-97.0717,ROCKPORT 1.3 WSW,9,9,100.0,253.37764524971146,Rural
US1TXAS0002,29.8925,-96.489,NEW ULM 0.1 ENE,9,9,100.0,108.94557744173856,Rural
US1TXBEL034,31.0684,-97.4561,BELTON 0.4 E,9,9,100.0,247.34398301483154,Rural
US1TXBEL113,31.0919,-97.4486,TEMPLE 5.1 W,9,9,100.0,248.29284548546042,Rural
US1TXBRT124,30.7061,-98.2713,BURNET 4.5 SSW,9,9,100.0,297.9092889920812,Rural
US1TXBST086,30.1685,-97.2498,BASTROP 5.1 NE,9,9,100.0,186.69278004312005,Rural
US1TXBST140,30.1153,-97.342,BASTROP 2.2 W,9,9,100.0,194.07889295144594,Rural
US1TXBST152,30.3702,-97.3113,ELGIN 3.9 ENE,9,9,100.0,198.75595625702206,Rural
US1TXBXR229,29.5178,-98.4388,TERRELL HILLS 2.8 N,9,9,100.0,297.79875476955243,Rural
US1TXCLL018,33.0539,-96.8371,PLANO 5.3 W,9,9,100.0,391.82168210585684,Rural
US1TXCLL030,33.3127,-96.5827,ANNA 3.7 SSW,9,9,100.0,411.41003186062915,Rural
US1TXCLL033,32.9921,-96.7397,RICHARDSON 2.2 NW,9,9,100.0,382.1806588826207,Rural
US1TXCML048,29.9454,-98.3706,CANYON LAKE 8.1 NW,9,9,100.0,290.1035826791624,Rural
US1TXCML092,29.6411,-98.3114,GARDEN RIDGE 1.2 WNW,9,9,100.0,284.400387405698,Rural
US1TXCML219,29.7481,-98.2522,NEW BRAUNFELS 8.6 WNW,9,9,100.0,278.2302576020414,Rural
US1TXDA0050,32.5996,-96.9537,CEDAR HILL 1.4 N,9,9,100.0,349.83737372742587,Rural
US1TXDA0052,32.7709,-96.6409,MESQUITE 2.4 W,9,9,100.0,355.9114230732275,Rural
US1TXDN0068,33.1562,-97.0345,SHADY SHORES 0.7 SE,9,9,100.0,409.295085924573,Rural
US1TXDN0108,33.2339,-97.2932,PONDER 3.8 N,9,9,100.0,427.12852815151047,Rural
US1TXDN0109,33.1832,-97.2862,PONDER 0.3 NNE,9,9,100.0,421.7727944952625,Rural
US1TXDW0008,29.0423,-97.6523,YORKTOWN 9.8 WNW,9,9,100.0,235.05032801007675,Rural
US1TXEL0023,32.4225,-96.8108,WAXAHACHIE 2.6 ENE,9,9,100.0,326.2890372613593,Rural
US1TXGZ0010,29.4461,-97.425,GONZALES 4.5 SSE,9,9,100.0,201.71808715111294,Rural
US1TXHYS012,30.1066,-97.8539,BUDA 1.7 NNW,9,9,100.0,242.43192242373266,Rural
US1TXHYS292,30.0284,-98.0761,WIMBERLEY 2.9 NNE,9,9,100.0,262.563584138747,Rural
US1TXJC0002,33.0402,-98.1207,PERRIN 3.0 ENE,9,9,100.0,448.49864615305785,Rural
US1TXLL0002,30.6936,-98.4098,KINGSLAND 3.3 NE,9,9,100.0,309.94136987278387,Rural
US1TXLO0009,28.3638,-98.1405,GEORGE WEST 2.7 NNW,9,9,100.0,310.81093219380097,Rural
US1TXMCL038,31.6166,-97.1403,WACO 4.1 NE,9,9,100.0,266.96376681369713,Rural
US1TXNU0013,27.5861,-97.7908,BISHOP 0.4 ENE,9,9,100.0,337.9262947553876,Rural
US1TXNV0005,32.067,-96.745,BLOOMING GROVE 2.4 SW,9,9,100.0,288.11009058773004,Rural
US1TXSM0028,32.2093,-95.3207,FLINT 1.7 ENE,9,9,100.0,272.39026673845143,Rural
US1TXTN0087,32.8757,-97.4798,EAGLE MOUNTAIN 2.4 WSW,9,8,88.89,400.2156676107184,Rural
US1TXTV0117,30.3721,-97.8134,AUSTIN 5.9 NW,9,9,100.0,244.78293109334984,Rural
US1TXTV0207,30.3419,-98.1322,DRIPPING SPRINGS 10.9 NNW,9,9,100.0,273.6087663688847,Rural
US1TXVC0034,28.7423,-97.0268,VICTORIA 6.4 SSW,9,9,100.0,196.57123653254024,Rural
US1TXWL0009,29.8729,-96.003,BROOKSHIRE 6.9 NNW,9,9,100.0,62.34573690312806,Rural
USC00010140,32.2322,-87.4103,ALBERTA,9,0,0.0,282.88040490840154,Rural
USC00010178,33.1272,-88.155,ALICEVILLE,9,9,100.0,340.17724919277447,Rural
USC00010184,33.2103,-88.2869,BEVILL L&D,9,0,0.0,345.6905863811603,Rural
USC00010402,31.1819,-87.4389,ATMORE,9,0,0.0,200.68933934447304,Rural
USC00010505,33.4528,-87.3572,BANKHEAD L&D,9,0,0.0,401.3929609475373,Rural
USC00010583,30.8839,-87.7853,BAY MINETTE,9,0,0.0,155.36334052751866,Rural
USC00010764,33.3936,-87.0067,BESSEMER 3 WSW,9,0,0.0,411.15099683808455,Rural
USC00011080,31.1414,-87.0486,BREWTON 3 ENE,9,0,0.0,230.85007745066267,Rural
USC00011084,31.0583,-87.055,BREWTON 3 SSE,9,0,0.0,226.33524169090379,Rural
USC00011143,33.2619,-87.3103,BROOKWOOD,9,0,0.0,384.50090894891713,Rural
USC00011189,32.0911,-88.2322,BUTLER,9,0,0.0,229.56302975251424,Rural
USC00011566,31.4714,-88.2503,CHATOM,9,0,0.0,167.950649247054,Rural
USC00011690,31.6147,-87.5003,CLAIBORNE L&D,9,0,0.0,225.91648654397716,Rural
USC00011803,30.3875,-88.2269,CODEN,9,0,0.0,95.7262795564373,Rural
USC00011810,31.7561,-88.1289,COFFEEVILLE L&D,9,0,0.0,200.91080953934107,Rural
USC00012172,30.2506,-88.0775,DAUPHIN IS #2,9,6,66.67,107.99407706999693,Rural
USC00012245,32.5194,-87.8794,DEMOPOLIS L&D,9,9,100.0,286.7644192122949,Rural
USC00012813,30.5467,-87.8808,FAIRHOPE 2 NE,9,0,0.0,132.29566939022996,Rural
USC00013160,32.8347,-88.1342,GAINESVILLE LOCK,9,0,0.0,309.88964569101245,Rural
USC00013511,32.6922,-87.5761,GREENSBORO,9,0,0.0,317.0462925963823,Rural
USC00013930,33.2531,-87.4497,HOLT L&D,9,0,0.0,377.680202459175,Rural
USC00014193,31.5253,-87.9278,JACKSON,9,0,0.0,190.94739720942314,Rural
USC00014798,32.5811,-88.1897,LIVINGSTON,9,0,0.0,281.5930986007081,Rural
USC00015112,32.7028,-87.2681,MARION 7 NE,9,0,0.0,333.1983316728495,Rural
USC00015121,32.4717,-87.2308,MARION JUNCTION 2 NE,9,0,0.0,314.28556623530494,Rural
USC00015354,31.9306,-88.4586,MELVIN,9,9,100.0,204.97971093548892,Rural
USC00015420,32.1003,-87.3983,MILLERS FERRY L&D,9,0,0.0,272.1017772712247,Rural
USC00015658,32.9964,-87.6319,MOUNDVILLE,9,0,0.0,344.5776987060448,Rural
USC00016362,32.6567,-87.0928,PERRYVILLE,9,0,0.0,338.50118919122025,Rural
USC00016847,33.3739,-88.0053,REFORM,9,0,0.0,370.5365360446968,Rural
USC00016988,30.5653,-87.7017,ROBERTSDALE,9,0,0.0,149.3514592891848,Rural
USC00017366,32.4111,-87.0144,SELMA,9,0,0.0,321.7955226235819,Rural
USC00018178,31.9172,-87.7347,THOMASVILLE,9,0,0.0,236.5113973974601,Rural
USC00018380,33.2231,-87.61,TUSCALOOSA ACFD,9,0,0.0,368.2512503578533,Rural
USC00018385,33.2108,-87.5933,TUSCALOOSA OLIVER DAM,9,0,0.0,367.65736194254373,Rural
USC00018446,32.5506,-87.5308,UNIONTOWN,9,9,100.0,305.64754406363437,Rural
USC00018637,31.21,-87.1789,WALLACE 2 E,9,0,0.0,223.48957895851484,Rural
USC00018673,32.7747,-87.8306,WARRIOR L&D,9,0,0.0,314.3542900850504,Rural
USC00018809,33.1186,-87.1264,W BLOCTON,9,0,0.0,379.2377865490336,Rural
USC00018867,31.6508,-87.7097,WHATLEY,9,7,77.78,215.01229867234284,Rural
USC00031140,33.3053,-92.4867,CALION L&D,9,0,0.0,464.4826426701866,Rural
USC00031730,33.1111,-91.9481,CROSSETT 2 SSE,9,0,0.0,415.2160318797349,Rural
USC00032355,33.1144,-91.2628,EUDORA,9,0,0.0,378.31228752463267,Rural
USC00032475,33.0597,-92.1236,FELSENTHAL L&D,9,0,0.0,421.5362823437157,Rural
USC00033088,33.2278,-91.7939,HAMBURG,9,9,100.0,416.5573724779727,Rural
USC00034185,33.3614,-93.5675,LEWISVILLE,9,0,0.0,435.3294309760556,Rural
USC00034548,33.2586,-93.1822,MAGNOLIA,9,0,0.0,440.82631044632564,Rural
USC00034936,33.3008,-92.3494,MORO BAY SP,9,0,0.0,455.5309139044022,Rural
USC00035866,33.2511,-91.5058,PORTLAND,9,0,0.0,403.28141734781866,Rural
USC00085793,30.7794,-87.1414,MILTON EXP STN,9,0,0.0,207.5034698102203,Rural
USC00086999,30.53,-87.1983,PENSACOLA 7 NNE,9,0,0.0,195.51729244426545,Rural
USC00160007,29.9689,-92.1169,ABBEVILLE,9,0,0.0,281.81725234734154,Rural
USC00160012,30.4586,-90.0975,ABITA RVR COVINGTON,9,0,0.0,90.8113340655696,Rural
USC00160016,30.4714,-90.0436,ABITA SPRINGS 1 SW,9,0,0.0,86.40182480403627,Rural
USC00160021,30.4372,-90.0519,ABITA SPRINGS FIRE TWR,9,0,0.0,85.91950215703582,Rural
USC00160098,31.3206,-92.4611,ALEXANDRIA,9,0,0.0,328.18763037120675,Rural
USC00160103,31.2483,-92.4486,ALEXANDRIA 5 SSE,9,0,0.0,325.1292306111667,Rural
USC00160205,30.7094,-90.525,AMITE,9,0,0.0,139.06275325452074,Rural
USC00160238,30.9644,-89.815,ANGIE,9,0,0.0,103.39449604037705,Rural
USC00160277,32.5511,-92.9186,ARCADIA,9,0,0.0,388.21367862164766,Rural
USC00160349,32.1292,-93.1164,ASHLAND,9,0,0.0,339.96783834612825,Rural
USC00160462,30.5669,-91.1633,BAKER,9,0,0.0,192.69179439418096,Rural
USC00160537,32.7314,-91.9144,BASTROP,9,0,0.0,381.42075572116966,Rural
USC00160540,30.8206,-91.6622,BATCHELOR,9,0,0.0,245.75585816284442,Rural
USC00160546,30.5586,-91.0342,BATON ROUGE CNTRL,9,0,0.0,180.40940370756337,Rural
USC00160548,30.4192,-91.1303,BATON ROUGE CONCORD,9,0,0.0,186.8944240392935,Rural
USC00160558,30.4494,-91.0478,BATON ROUGE SHERWOOD,9,0,0.0,179.50656877561073,Rural
USC00160565,30.1328,-91.3228,BAYOU SORREL LOCK,9,0,0.0,204.21077069199438,Rural
USC00160617,30.7903,-92.4969,BEAVER FIRE TWR,9,0,0.0,298.7287920613138,Rural
USC00160658,29.9747,-93.0897,BELL CITY 13 SW,9,0,0.0,221.1688229967996,Rural
USC00160718,32.6997,-93.6619,BENTON 5E,9,9,100.0,364.98576171055555,Rural
USC00160800,32.3744,-92.9433,BIENVILLE 3 NE,9,0,0.0,371.36463082355255,Rural
USC00160945,30.7808,-89.8567,BOGALUSA,9,0,0.0,90.16743326857497,Rural
USC00161200,32.5331,-93.71,BOSSIER CITY 2,9,0,0.0,346.45074262588525,Rural
USC00161232,31.395,-92.7167,BOYCE 3 WNW,9,0,0.0,312.3460207992383,Rural
USC00161235,31.3025,-92.73,BOYCE 7 SW,9,0,0.0,305.52049441120636,Rural
USC00161246,30.3919,-91.2711,BRUSLY 2 W,9,0,0.0,199.98331108099958,Rural
USC00161287,30.9594,-92.1786,BUNKIE,9,0,0.0,297.3703315742844,Rural
USC00161292,29.3414,-89.5158,BURAS,9,0,0.0,100.21946391690679,Rural
USC00161365,30.2817,-91.6911,BUTTE LA ROSE,9,0,0.0,239.4702724956048,Rural
USC00161411,32.5372,-92.3597,CALHOUN 2 N,9,0,0.0,396.8638881741132,Rural
USC00161535,30.32,-92.0444,CARENCRO,9,0,0.0,273.5069966546376,Rural
USC00161565,30.1981,-91.1256,CARVILLE 2 SW,9,0,0.0,185.05558782061425,Rural
USC00161639,29.9664,-89.9761,CHALMETTE,9,0,0.0,79.06235117032605,Inland
USC00161866,31.7236,-91.5408,CLAYTON,9,0,0.0,280.1981926698756,Rural
USC00161891,30.8544,-91.0092,CLINTON FORESTRY HQ,9,9,100.0,187.94300568793912,Rural
USC00161899,30.8178,-90.9733,CLINTON 5 SE,9,0,0.0,183.24290582269253,Rural
USC00161941,31.5183,-92.7142,COLFAX,9,0,0.0,320.57937126398235,Rural
USC00161979,32.1672,-92.1078,COLUMBIA LOCK,9,0,0.0,352.62455413203736,Rural
USC00162002,29.9953,-90.8178,CONVENT 2S,9,0,0.0,157.29095089263652,Rural
USC00162121,32.8869,-93.4569,COTTON VALLEY 5 NNW,9,0,0.0,392.29653621313633,Rural
USC00162144,32.0075,-93.2694,COUSHATTA GRAND BAYOU,9,9,100.0,320.353899142744,Rural
USC00162151,30.5269,-90.2147,COVINGTON 8 WNW,9,0,0.0,103.91756553047112,Rural
USC00162154,30.5131,-90.09,COVINGTON 3 NE,9,0,0.0,92.219185785322,Rural
USC00162212,30.2411,-92.3475,CROWLEY 2 NE,9,0,0.0,295.923380679065,Rural
USC00162217,32.2428,-91.5889,CROWVILLE,9,9,100.0,321.2254018232049,Rural
USC00162350,30.4803,-90.9614,DENHAM SPRINGS,9,0,0.0,171.8817580512176,Rural
USC00162367,30.8428,-93.2869,DE RIDDER,9,0,0.0,233.42517614324214,Rural
USC00162534,30.0719,-91.0278,DONALDSONVILLE 4 SW,9,0,0.0,176.3454531668362,Rural
USC00162536,30.0992,-90.9269,DONALDSONVILLE 4E,9,0,0.0,166.42137002547037,Rural
USC00162641,30.7414,-93.1389,DRY CREEK 8NW,9,0,0.0,240.481717611998,Rural
USC00162812,31.1042,-92.705,ELMER 2 SW,9,0,0.0,296.00037261495333,Rural
USC00162981,30.4917,-92.4303,EUNICE,9,0,0.0,294.18925874963134,Rural
USC00163079,32.7736,-92.4086,FARMERVILLE,9,0,0.0,417.63753615104065,Rural
USC00163165,30.5506,-90.1919,FOLSOM 6 S,9,0,0.0,102.83025047929253,Rural
USC00163313,29.8233,-91.5442,FRANKLIN 3 NW,9,0,0.0,229.56344975552184,Rural
USC00163322,30.8353,-90.1625,FRANKLINTON #2,9,0,0.0,116.1498127637996,Rural
USC00163331,30.7842,-90.2022,FRANKLINTON 5 SW,9,9,100.0,115.93465147577668,Rural
USC00163433,29.4631,-90.3072,GALLIANO,9,0,0.0,134.61127925595142,Rural
USC00163695,30.2033,-90.9225,GONZALES,9,0,0.0,165.53342581581947,Rural
USC00163741,31.4358,-92.8828,GORUM FIRE TWR,9,0,0.0,302.29550496074455,Rural
USC00163800,30.4183,-92.0442,GRAND COTEAU,9,0,0.0,274.10197752796245,Rural
USC00163804,31.8078,-93.0867,GRAND ECORE,9,0,0.0,315.2988405183236,Rural
USC00163807,29.2414,-89.9914,GRAND ISLE,9,0,0.0,131.1564012171465,Rural
USC00163829,29.9169,-90.0617,GRETNA,9,0,0.0,88.70397057548139,Inland
USC00163867,30.5589,-90.9855,GREENWELL SPRINGS,9,0,0.0,175.86377371394948,Rural
USC00163877,32.4175,-94.0003,GREENWOOD FIRE TWR,9,0,0.0,322.99450066795,Rural
USC00163979,29.8894,-93.4022,HACKBERRY 8 SSW,9,0,0.0,190.37047458854548,Rural
USC00163981,29.9872,-93.2694,HACKBERRY 4NE,9,9,100.0,204.10642098197937,Rural
USC00164030,30.5031,-90.3772,HAMMOND 5 E,9,0,0.0,117.87793767424799,Rural
USC00164034,30.4878,-90.4875,HAMMOND,9,0,0.0,127.6276688666563,Rural
USC00164050,31.9272,-93.3103,HANNA 4 SSE,9,0,0.0,311.01048411032775,Rural
USC00164131,32.9683,-93.1297,HAYNESVILLE,9,0,0.0,415.3153433954634,Rural
USC00164288,31.3747,-93.3911,HODGES GARDENS,9,0,0.0,261.0133698348444,Rural
USC00164355,32.81,-93.0625,HOMER 1N,9,0,0.0,403.8246693335787,Rural
USC00164398,32.8867,-93.8733,HOSSTON,9,0,0.0,375.60298646382216,Rural
USC00164407,29.6408,-90.8161,HOUMA,9,0,0.0,167.70228032874746,Rural
USC00164573,30.8331,-91.1261,JACKSON 3E,9,0,0.0,197.47583312554244,Rural
USC00164592,32.3483,-93.2014,JAMESTOWN,9,0,0.0,354.24563875614166,Rural
USC00164674,29.9594,-91.7111,JEANERETTE 5 NW,9,0,0.0,243.09000678765352,Rural
USC00164696,31.6783,-92.1289,JENA,9,0,0.0,324.0949232767511,Rural
USC00164700,30.2003,-92.6642,JENNINGS,9,0,0.0,265.16589923480586,Rural
USC00164732,32.255,-92.6544,JONESBORO 4 ENE,9,0,0.0,379.37545256114663,Rural
USC00164735,32.2239,-92.7069,JONESBORO #2,9,9,100.0,373.46570806348376,Rural
USC00164739,31.4825,-91.8628,JONESVILLE LOCKS,9,0,0.0,291.4723120596454,Rural
USC00164775,29.9942,-92.2825,KAPLAN,9,0,0.0,297.4189383317462,Rural
USC00164816,32.355,-93.8619,KEITHVILLE,9,0,0.0,322.3204130746191,Rural
USC00164859,30.9433,-90.5117,KENTWOOD,9,0,0.0,150.33580544019568,Rural
USC00164931,32.4169,-93.4428,KORAN,9,0,0.0,347.77258075411777,Rural
USC00165021,30.2192,-92.065,LAFAYETTE,9,0,0.0,275.309176977269,Rural
USC00165065,30.0206,-92.7681,LAKE ARTHUR 7 SW,9,0,0.0,252.49582193437567,Rural
USC00165072,30.3014,-93.2689,LAKE CHARLES 7 NW,9,0,0.0,211.03287073308718,Rural
USC00165074,30.2544,-93.2186,LAKE CHARLES 2 N,9,0,0.0,214.32584831463194,Rural
USC00165076,30.2142,-93.2494,LAKE CHARLES PORT,9,0,0.0,210.3833606370259,Rural
USC00165090,32.8153,-91.1733,LAKE PROVIDENCE,9,0,0.0,345.7619617140373,Rural
USC00165146,31.3731,-91.9053,LARTO LAKE,9,0,0.0,289.46602912286727,Rural
USC00165266,31.1417,-93.2397,LEESVILLE,9,0,0.0,255.53626402520882,Rural
USC00165287,31.0517,-93.2789,LEESVILLE 6 SSW,9,0,0.0,246.66002250864994,Rural
USC00165296,29.7869,-92.2083,LELAND BOWMAN LOCK,9,0,0.0,293.3207637674101,Rural
USC00165430,30.9336,-90.57,LIVERPOOL 6W,9,0,0.0,154.46161604662822,Rural
USC00165438,30.5197,-90.7544,LIVINGSTON,9,0,0.0,153.31602441088248,Rural
USC00165522,31.9672,-94.0003,LOGANSPORT,9,0,0.0,278.07004479621344,Rural
USC00165610,30.0306,-89.9636,LOUISIANA NATURE CTR,9,0,0.0,75.82405295091236,Inland
USC00165620,30.3644,-91.1672,LSU BEN-HUR FARM,9,0,0.0,189.7757236945318,Rural
USC00165624,29.5814,-89.8222,LSU CITRUS RSCH STN,9,0,0.0,91.26442507278456,Rural
USC00165630,31.1783,-92.4108,LSU DEAN LEE RSCH STN,9,0,0.0,324.48704662967947,Rural
USC00165783,30.0389,-90.6936,LUTCHER,9,0,0.0,144.76816477244856,Rural
USC00165874,32.0711,-93.7589,MANSFIELD 4 NW,9,9,100.0,299.4242043508782,Rural
USC00165892,31.5769,-93.4817,MANY,9,0,0.0,270.97364568333387,Rural
USC00165896,31.5119,-93.62,MANY 9 WSW,9,0,0.0,256.85778140046557,Rural
USC00165920,31.1286,-92.0644,MARKSVILLE,9,0,0.0,292.7692752242376,Rural
USC00165926,29.7853,-90.1158,MARRERO 9 SSW,9,0,0.0,99.52272986696602,Inland
USC00165935,32.0775,-93.2167,MARTIN FIRE TWR,9,0,0.0,329.52528583782833,Rural
USC00166157,29.9903,-90.1431,METAIRIE,9,0,0.0,93.67911040754515,Inland
USC00166244,32.6053,-93.2947,MINDEN,9,0,0.0,372.9019038592723,Rural
USC00166314,32.4936,-92.0319,MONROE DELTA CC,9,0,0.0,370.5972081166495,Rural
USC00166364,32.7053,-93.9603,MOORINGSPORT 1 N,9,0,0.0,353.85618679050134,Rural
USC00166394,29.6833,-91.1761,MORGAN CITY,9,0,0.0,198.88160680766856,Rural
USC00166431,30.2944,-93.2083,MOSS BLUFF,9,0,0.0,216.42249154115493,Rural
USC00166466,30.9503,-90.3061,MT HERMON 2W,9,0,0.0,134.80807460140508,Rural
USC00166561,29.9342,-91.0164,NAPOLEONVILLE,9,0,0.0,177.2756149669028,Rural
USC00166582,31.7722,-93.0956,NATCHITOCHES,9,0,0.0,311.8878710625914,Rural
USC00166657,30.0292,-91.8844,NEW IBERIA AP - ACADIANA RGNL,9,0,0.0,258.89374972146413,Rural
USC00166666,29.9508,-90.0511,NEW ORLEANS ALGIERS,9,0,0.0,86.45708778862046,Inland
USC00166686,30.7267,-91.3672,NEW ROADS 5 NE,9,0,0.0,215.80917832364304,Rural
USC00166808,30.9678,-91.1003,NORWOOD,9,0,0.0,200.9421982926202,Rural
USC00166836,30.8214,-92.6697,OAKDALE,9,0,0.0,284.8540182650575,Rural
USC00166866,32.8642,-91.38,OAK GROVE,9,0,0.0,361.15458383975573,Rural
USC00166868,32.6228,-91.7764,OAK RIDGE,9,0,0.0,363.77954082766536,Rural
USC00166911,30.7531,-90.9939,OAKNOLIA 2N,9,0,0.0,182.57987626371448,Rural
USC00166938,30.6036,-92.7739,OBERLIN FIRE TWR,9,0,0.0,266.5782654387973,Rural
USC00166968,30.2869,-93.1444,OLD TOWN BAY,9,0,0.0,222.13033268253938,Rural
USC00166978,31.8922,-92.2422,OLLA,9,0,0.0,345.51886089945816,Rural
USC00166995,30.5081,-92.0925,OPELOUSAS,9,0,0.0,279.640151925934,Rural
USC00167096,29.7892,-90.4286,PARADIS 7 S,9,0,0.0,126.82817319349526,Rural
USC00167304,30.7111,-90.7525,PINE GROVE FIRE TWR,9,0,0.0,159.29197841209847,Rural
USC00167344,32.8922,-93.645,PLAIN DEALING,9,9,100.0,384.8820953199109,Rural
USC00167366,30.3214,-91.2517,PLAQUEMINE 2 N,9,0,0.0,197.5118751307656,Rural
USC00167425,30.4297,-90.3631,PONCHATOULA 4 E,9,0,0.0,114.53042482449503,Rural
USC00167448,30.4508,-91.2183,PORT ALLEN,9,0,0.0,195.71132679098645,Rural
USC00167590,32.3644,-92.7125,QUITMAN 2,9,9,100.0,384.5953323575871,Rural
USC00167651,30.5114,-93.2172,RAGLEY 1W,9,9,100.0,223.24416927900305,Rural
USC00167691,32.4936,-91.7486,RAYVILLE,9,9,100.0,351.5695083254455,Rural
USC00167729,31.2544,-91.96,RED RVR LOCK #1,9,0,0.0,288.6791104638424,Rural
USC00167732,31.1872,-92.2906,RED RIVER LOCK # 2,9,0,0.0,315.22899582832315,Rural
USC00167738,32.4219,-93.6381,RED RVR RSCH STN,9,0,0.0,338.8154409229431,Rural
USC00167767,30.0564,-90.5803,RESERVE,9,0,0.0,133.70359121881836,Rural
USC00167924,32.3556,-93.6425,ROBSON,9,0,0.0,332.2160042605548,Rural
USC00167932,29.7286,-92.8181,ROCKEFELLER WL REFUGE,9,0,0.0,246.39237556466946,Rural
USC00168046,30.9461,-93.2789,ROSEPINE RSCH STN,9,0,0.0,240.10413811236927,Rural
USC00168067,32.51,-92.6503,RUSTON LA TECH,9,0,0.0,400.59986067300747,Rural
USC00168094,32.3625,-93.14,SAILES FIRE TWR,9,0,0.0,358.948595585139,Rural
USC00168108,29.8722,-89.83,ST BERNARD,9,0,0.0,70.7560514676308,Inland
USC00168136,30.7775,-91.3769,ST FRANCISVILLE,9,0,0.0,218.2461445598018,Rural
USC00168139,30.2725,-91.0994,ST GABRIEL,9,0,0.0,182.64658974978786,Rural
USC00168163,31.9497,-91.2336,ST JOSEPH 3 N,9,0,0.0,274.5100791831417,Rural
USC00168181,30.0858,-91.8694,ST MARTINVILLE 3 SW,9,0,0.0,256.9939237701642,Rural
USC00168436,32.5158,-93.7447,SHREVEPORT DWTN,9,0,0.0,343.24623121604924,Rural
USC00168444,32.3794,-93.8019,SHREVEPORT SOUTHERN HILLS,9,0,0.0,327.30990151628663,Rural
USC00168539,30.265,-89.7697,SLIDELL,9,0,0.0,55.206884187738055,Rural
USC00168586,32.5558,-91.1747,SONDHEIMER,9,9,100.0,322.1035201029492,Rural
USC00168669,32.9006,-92.5714,SPEARSVILLE FIRE TWR,9,0,0.0,438.39168918911395,Rural
USC00168683,32.9922,-93.4417,SPRINGHILL,9,0,0.0,403.3158037669612,Rural
USC00168785,32.7025,-92.0814,STERLINGTON,9,0,0.0,390.01159625346025,Rural
USC00168831,30.2383,-93.3447,SULPHUR,9,0,0.0,202.15127079885895,Rural
USC00168861,30.6433,-89.9239,SUN,9,0,0.0,85.13343623740606,Rural
USC00168906,30.5325,-89.8742,TALISHEEK,9,0,0.0,74.50367378863409,Rural
USC00168923,32.3994,-91.1842,TALLULAH,9,0,0.0,308.77363888141855,Rural
USC00168941,29.91,-90.0342,TERRYTOWN 3S,9,0,0.0,86.52036146048329,Inland
USC00168945,30.5981,-90.4472,TICKFAW 3 ENE,9,0,0.0,127.54371418187445,Rural
USC00169013,29.7547,-90.7747,THIBODAUX 4 SE,9,0,0.0,159.55030397327448,Rural
USC00169074,31.2022,-93.5725,TOLEDO BEND LAKE,9,9,100.0,235.33634263973585,Rural
USC00169357,31.5653,-91.4333,VIDALIA #2,9,0,0.0,261.65468996814496,Rural
USC00169369,30.695,-92.2664,VILLE PLATTE,9,0,0.0,299.04470002468776,Rural
USC00169392,32.9033,-93.9819,VIVIAN,9,0,0.0,373.54542676165806,Rural
USC00169480,30.5622,-90.9214,WATSON 3 ESE,9,0,0.0,169.96503069464976,Rural
USC00169631,32.46,-92.1483,W MONROE,9,0,0.0,376.22383288099303,Rural
USC00169803,31.9622,-92.6561,WINNFIELD 3 N,9,0,0.0,356.4364387317134,Rural
USC00169804,32.1411,-91.7089,WINNSBORO 2 SE,9,0,0.0,321.7941615092522,Rural
USC00169806,32.0997,-91.7022,WINNSBORO 5 SSE,9,0,0.0,318.28740311305813,Rural
USC00169809,32.0294,-92.6553,WINONA FIRE TWR,9,0,0.0,361.5988225010944,Rural
USC00169930,30.6814,-91.125,ZACHARY,9,0,0.0,192.14768827976255,Rural
USC00169980,31.6597,-93.6633,ZWOLLE 2 NW,9,0,0.0,266.9039142264475,Rural
USC00220039,33.3117,-89.1667,ACKERMAN,9,0,0.0,346.01957017394153,Rural
USC00220218,30.2208,-89.4978,ANSLEY,9,0,0.0,28.709746321631755,Coastal
USC00220521,30.3758,-89.5989,BAY ST LOUIS NASA,9,0,0.0,43.00122278210253,Coastal
USC00220523,31.9694,-89.2889,BAY SPRINGS,9,0,0.0,196.93032266580016,Rural
USC00220585,31.2353,-88.9189,BEAUMONT EXPSTATION,9,0,0.0,118.21450904639362,Rural
USC00220660,33.1772,-90.4919,BELZONI,9,0,0.0,352.8854477417557,Rural
USC00220792,30.3931,-89.0008,BILOXI,9,0,0.0,28.75407813215314,Coastal
USC00220891,33.2781,-88.7931,BLUFF LAKE,9,0,0.0,344.4241569277811,Rural
USC00221094,31.5447,-90.4581,BROOKHAVEN CITY,9,0,0.0,191.7638963697963,Rural
USC00221174,31.5475,-88.5172,BUCKATUNNA 1 NE,9,0,0.0,163.39124239565436,Rural
USC00221389,32.6714,-90.0361,CANTON 4N,9,0,0.0,286.02314549947147,Rural
USC00221489,32.7506,-89.5389,CARTHAGE,9,0,0.0,285.42836284355985,Rural
USC00221578,31.0942,-91.0686,CENTREVILLE,9,0,0.0,204.54440256642863,Rural
USC00221852,31.6419,-89.5572,COLLINS,9,0,0.0,163.9122918656257,Rural
USC00221860,32.42,-88.7603,COLLINSVILLE 7 SE,9,0,0.0,250.36118040556852,Rural
USC00221865,31.2503,-89.8361,COLUMBIA,9,0,0.0,131.66684135817488,Rural
USC00221880,33.4678,-88.3847,COLUMBUS,9,0,0.0,371.4312760194953,Rural
USC00222034,32.0853,-88.5297,CRANDALL 8 N,9,0,0.0,219.12517511688142,Rural
USC00222046,33.2778,-88.7008,CRAWFORD 5 W,9,9,100.0,345.47459052019497,Rural
USC00222094,31.9461,-90.3775,CRYSTAL SPRINGS EXP STN,9,0,0.0,224.21279095845637,Rural
USC00222385,31.9544,-89.9328,D'LO 2 SW,9,0,0.0,207.1858506808437,Rural
USC00223107,32.36,-89.4208,FOREST,9,0,0.0,241.09564169089384,Rural
USC00223340,32.9267,-88.8536,GHOLSON 8 W,9,0,0.0,304.96561876429354,Rural
USC00223441,31.17,-91.0258,GLOSTER,9,0,0.0,205.21818549572168,Rural
USC00223516,32.5008,-89.9256,GOSHEN SPRINGS 3 NW,9,0,0.0,264.95100582019734,Rural
USC00223605,33.3592,-91.06,GREENVILLE,9,0,0.0,392.8054835692896,Rural
USC00223667,30.4542,-89.125,GULFPORT 3NW,9,0,0.0,29.167951993894956,Coastal
USC00223671,30.3772,-89.1228,GULFPORT NAVAL CTR,9,0,0.0,21.051886669911863,Coastal
USC00223887,31.2547,-89.3392,HATTIESBURG 5SW,9,0,0.0,118.02958702902389,Rural
USC00223920,31.8328,-90.4542,HAZLEHURST 5 SW,9,0,0.0,217.36305447768063,Rural
USC00224470,32.2964,-90.2092,JACKSON STATE,9,0,0.0,252.07489196131257,Rural
USC00224702,32.7247,-88.6631,KIPLING 4 NNW,9,0,0.0,285.3135095592341,Rural
USC00224776,33.0583,-89.5797,KOSCIUSKO,9,0,0.0,319.85419185805824,Rural
USC00224939,31.6756,-89.1236,LAUREL,9,0,0.0,164.24093236149386,Rural
USC00224966,31.1481,-88.6567,LEAKESVILLE 6 WSW,9,0,0.0,117.5323875090413,Rural
USC00225020,33.4789,-90.8436,LELAND 5 NE,9,0,0.0,396.2600517521212,Rural
USC00225062,33.1228,-90.0517,LEXINGTON,9,0,0.0,334.8434863013679,Rural
USC00225070,31.1658,-90.8178,LIBERTY,9,9,100.0,188.32365473125793,Rural
USC00225247,33.1356,-89.0711,LOUISVILLE,9,0,0.0,326.65158613988274,Rural
USC00225361,33.1544,-88.5586,MACON 3N,9,0,0.0,334.0715156749225,Rural
USC00225611,31.1917,-90.5147,MCCOMB 6SW (PERCY QUINN),9,0,0.0,167.2147937019391,Rural
USC00225704,31.4664,-90.8853,MEADVILLE,9,0,0.0,213.82022029531174,Rural
USC00225943,31.8375,-89.5975,MIZE 3SW,9,0,0.0,185.97951795623922,Rural
USC00225987,31.5519,-90.1058,MONTICELLO,9,0,0.0,173.40598967152863,Rural
USC00225989,31.5519,-90.1058,MONTICELLO 2,9,0,0.0,173.40598967152863,Rural
USC00226009,33.4517,-90.5097,MOORHEAD,9,0,0.0,382.1472056662828,Rural
USC00226177,31.5889,-91.3408,NATCHEZ,9,0,0.0,256.0709885144237,Rural
USC00226294,32.9369,-89.7594,NEWPORT,9,0,0.0,308.90769389205275,Rural
USC00226308,32.3378,-89.0817,NEWTON EXP STN,9,0,0.0,237.97820548165512,Rural
USC00226476,32.2061,-90.5133,OAKLEY EXP STN,9,0,0.0,255.65126313228512,Rural
USC00226484,30.4106,-88.7883,OCEAN SPRINGS,9,0,0.0,45.939797116696425,Coastal
USC00226638,32.0339,-88.71,P HARRISON ARCHUSA,9,0,0.0,209.18642472300817,Rural
USC00226640,31.6817,-89.3364,P HARRISON BIG CK WP,9,0,0.0,165.27022742078813,Rural
USC00226642,31.7522,-89.7286,P HARRISON DRY CK WP,9,0,0.0,179.80255988282596,Rural
USC00226643,32.2286,-88.8206,P HARRISON DUNNS FALLS,9,0,0.0,228.43669619938572,Rural
USC00226644,32.4031,-89.1531,P HARRISON TURKEY WP,9,0,0.0,245.01405507415146,Rural
USC00226718,30.3961,-88.4781,PASCAGOULA 3 NE,9,0,0.0,72.65659672364822,Rural
USC00226750,32.0308,-89.0356,PAULDING,9,9,100.0,204.17626120199455,Rural
USC00226894,32.7692,-89.1303,PHILA 1 WSW,9,0,0.0,285.75842155681676,Rural
USC00226921,30.5364,-89.705,PICAYUNE,9,0,0.0,61.208515803495395,Rural
USC00226924,30.6522,-89.6522,PICAYUNE 4NE,9,0,0.0,66.39408670237526,Rural
USC00226926,32.8864,-89.9775,PICKENS,9,0,0.0,307.6632941314838,Rural
USC00227128,30.8408,-89.5453,POPLARVILLE EXP STN,9,0,0.0,78.55620770824112,Rural
USC00227132,31.985,-90.9719,PORT GIBSON 1 NE,9,0,0.0,260.49308756751884,Rural
USC00227172,31.5867,-89.8819,PRENTISS,9,0,0.0,167.35880583529396,Rural
USC00227220,31.1775,-89.4156,PURVIS 2N,9,0,0.0,110.63083951493344,Rural
USC00227252,32.0706,-88.7189,QUITMAN 2 NNE,9,9,100.0,212.98079090724872,Rural
USC00227276,32.1433,-89.5525,RALEIGH 6N,9,0,0.0,218.67162484224886,Rural
USC00227444,31.3656,-88.9322,RICHTON 1 N,9,0,0.0,132.1093092236802,Rural
USC00227560,32.8978,-90.8853,ROLLING FK,9,0,0.0,339.82649233207337,Rural
USC00227595,32.3975,-90.0647,ROSS BARNETT RESERVR,9,0,0.0,257.7894826449496,Rural
USC00227831,32.5861,-90.6261,SATARTIA 8 SW,9,0,0.0,297.8470422513022,Rural
USC00227840,30.6264,-89.055,SAUCIER EXP FOREST,9,0,0.0,49.41031452204713,Coastal
USC00228053,31.8597,-88.6953,SHUBUTA,9,0,0.0,190.71186801140922,Rural
USC00228374,33.4692,-88.7822,STATE UNIV,9,0,0.0,365.6535866557587,Rural
USC00228413,30.3678,-89.4544,STENNIS-DIAMONDHEAD,9,0,0.0,30.73846129447635,Coastal
USC00228445,33.4311,-90.9108,STONEVILLE EXP STN,9,0,0.0,393.95266437932156,Rural
USC00228556,31.4222,-89.5386,SUMRALL,9,0,0.0,139.6962682901428,Rural
USC00228899,32.4686,-88.6083,TOPTON 2,9,0,0.0,258.4391898526662,Rural
USC00229048,31.08,-90.0603,TYLERTOWN 5ESE,9,0,0.0,127.86242324749195,Rural
USC00229072,31.6819,-90.7831,UNION CHURCH,9,0,0.0,223.4841351356455,Rural
USC00229114,33.3253,-89.7539,VAIDEN 1 SSW,9,0,0.0,351.43879558988186,Rural
USC00229157,30.4856,-88.6547,VANCLEAVE,9,0,0.0,61.21117397746381,Rural
USC00229216,32.3567,-90.8444,VICKSBURG MILITARY PK,9,9,100.0,286.2262266734701,Rural
USC00229230,32.385,-90.8753,VICKSBURG CITY,9,0,0.0,290.45316082848353,Rural
USC00229326,32.5972,-89.4606,WALNUT GROVE,9,0,0.0,267.7012140131849,Rural
USC00229426,30.2947,-89.3831,WAVELAND,9,0,0.0,20.49929899952208,Coastal
USC00229439,31.6772,-88.6708,WAYNESBORO 2 W,9,0,0.0,171.8357506668761,Rural
USC00229597,32.0844,-89.7056,WHITE OAK 2 N,9,0,0.0,214.98866211762996,Rural
USC00229639,30.8528,-89.1369,WIGGINS,9,0,0.0,72.83922409192027,Rural
USC00229743,33.4844,-89.625,WINONA 5 E,9,0,0.0,367.4072134560162,Rural
USC00229793,31.0931,-91.2325,WOODVILLE 4 ESE,9,0,0.0,218.32405664074045,Rural
USC00229860,32.9028,-90.3817,YAZOO CITY 5 NNE,9,0,0.0,320.711835812424,Rural
USC00410144,27.7283,-98.0678,ALICE,9,0,0.0,346.6965490403018,Rural
USC00410190,31.6094,-95.1342,ALTO 5 SW,9,0,0.0,206.8762076416577,Rural
USC00410202,32.4644,-97.1831,ALVARADO 4NE,9,9,100.0,346.7146190943212,Rural
USC00410204,29.3653,-95.2336,ALVIN,9,0,0.0,45.828519385266986,Coastal
USC00410206,33.3867,-97.7164,ALVORD 3 N,9,0,0.0,460.43573916973935,Rural
USC00410235,29.7878,-94.6342,ANAHUAC,9,0,0.0,71.08380205030905,Rural
USC00410246,30.7578,-97.8614,ANDICE 2 SW,9,0,0.0,263.74854007329805,Rural
USC00410257,29.1572,-95.4592,ANGLETON 2 W,9,0,0.0,67.58236669705907,Rural
USC00410271,33.4414,-98.3689,ANTELOPE,9,0,0.0,498.167747146998,Rural
USC00410297,31.8389,-97.2108,AQUILLA 1 SSE,9,0,0.0,290.41551871612944,Rural
USC00410305,28.3081,-96.8047,ARANSAS WR,9,0,0.0,213.34826228316243,Rural
USC00410337,32.7572,-97.0736,ARLINGTON SIX FLAGS,9,0,0.0,370.5134937893615,Rural
USC00410404,32.1633,-95.83,ATHENS,9,0,0.0,270.8092643792889,Rural
USC00410408,33.1244,-94.1661,ATLANTA,9,0,0.0,391.13950806043175,Rural
USC00410431,30.2247,-97.7328,AUSTIN 6S,9,0,0.0,233.3375989211492,Rural
USC00410436,28.3889,-96.8389,AUSTWELL,9,9,100.0,208.85388290094576,Rural
USC00410518,32.2631,-96.6369,BARDWELL DAM,9,0,0.0,303.38282852496747,Rural
USC00410569,28.9797,-95.975,BAY CITY WTR WKS,9,0,0.0,104.71479020830675,Rural
USC00410586,29.9142,-94.9908,BAYTOWN,9,0,0.0,40.395352373068356,Coastal
USC00410611,30.0969,-94.0997,BEAUMONT CITY,9,0,0.0,128.01780368835892,Rural
USC00410613,30.0686,-94.2928,BEAUMONT RSCH CTR,9,0,0.0,109.34453796476393,Rural
USC00410639,28.4575,-97.7061,BEEVILLE 5 NE,9,0,0.0,269.21784811688224,Rural
USC00410655,30.0317,-96.2167,BELLVILLE 6NNE,9,0,0.0,87.03228316765751,Rural
USC00410660,29.5244,-97.685,BELMONT,9,0,0.0,225.25299325600577,Rural
USC00410690,27.5969,-98.4161,BENAVIDES #2,9,0,0.0,382.27223252999784,Rural
USC00410691,32.6475,-97.4439,BENBROOK DAM,9,0,0.0,376.7978896293964,Rural
USC00410738,30.7625,-98.0214,BERTRAM 3 ENE,9,0,0.0,277.96745989633666,Rural
USC00410805,27.5842,-97.8031,BISHOP,9,0,0.0,338.9180401823795,Rural
USC00410832,30.095,-98.4142,BLANCO,9,0,0.0,295.7093324260437,Rural
USC00411026,32.0508,-96.9661,BRANDON,9,0,0.0,296.7611154984817,Rural
USC00411035,32.6489,-98.1336,BRAZOS,9,0,0.0,415.0176965205581,Rural
USC00411045,31.1586,-96.6828,BREMOND,9,0,0.0,200.04277347387767,Rural
USC00411048,30.1592,-96.3972,BRENHAM,9,0,0.0,108.45626681680262,Rural
USC00411063,33.2064,-97.7761,BRIDGEPORT,9,0,0.0,445.9613103005996,Rural
USC00411089,31.305,-94.2703,BROADDUS,9,0,0.0,201.50921580642762,Rural
USC00411215,29.7383,-98.4522,BULVERDE,9,0,0.0,297.55690841846064,Rural
USC00411246,32.5067,-97.3444,BURLESON,9,0,0.0,358.58090712727255,Rural
USC00411250,30.7586,-98.2339,BURNET,9,0,0.0,296.6170930934029,Rural
USC00411253,30.7247,-98.3842,BURNET 9 WSW,9,0,0.0,308.76601168145856,Rural
USC00411314,30.5328,-96.7022,CALDWELL,9,0,0.0,154.2486022632811,Rural
USC00411337,28.4658,-98.3539,CALLIHAM,9,0,0.0,323.6149717015322,Rural
USC00411348,30.8458,-96.97,CAMERON,9,0,0.0,195.36978207276815,Rural
USC00411429,29.8608,-98.1958,CANYON DAM,9,0,0.0,272.85965224006156,Rural
USC00411433,29.9461,-98.3967,CANYON DAM #3,9,0,0.0,292.61861805626296,Rural
USC00411500,32.1614,-94.3397,CARTHAGE,9,9,100.0,284.5168708692974,Rural
USC00411541,30.0164,-97.4786,CEDAR CREEK 5 S,9,0,0.0,205.26796075715808,Rural
USC00411578,31.8194,-94.2528,CENTER,9,0,0.0,252.63533796561083,Rural
USC00411580,31.4683,-98.4106,CENTER CITY,9,0,0.0,347.462726096269,Rural
USC00411596,31.2581,-95.9744,CENTERVILLE,9,0,0.0,176.35602841383593,Rural
USC00411625,32.1561,-97.9369,CHALK MTN,9,0,0.0,361.768657658804,Rural
USC00411671,29.3092,-97.4061,CHEAPSIDE,9,0,0.0,203.25906372573198,Rural
USC00411711,31.5039,-94.3522,CHIRENO,9,0,0.0,216.98802891550008,Rural
USC00411720,28.4675,-98.2525,CHOKE CANYON DAM,9,0,0.0,314.734983095938,Rural
USC00411800,32.3139,-97.4061,CLEBURNE,9,0,0.0,343.8945335668191,Rural
USC00411804,32.33,-97.3122,CLEBURNE 7SE,9,0,0.0,340.42305282557413,Rural
USC00411810,30.3636,-95.0839,CLEVELAND,9,0,0.0,72.54522606546783,Rural
USC00411838,29.7067,-95.6878,CLODINE,9,0,0.0,31.25238612636686,Coastal
USC00411880,28.7156,-97.1742,COLETO CREEK RSVR,9,0,0.0,210.07165699188099,Rural
USC00411911,29.6989,-96.5731,COLUMBUS,9,0,0.0,116.36820125478289,Rural
USC00411921,33.1997,-95.9283,COMMERCE 4SW,9,0,0.0,386.1217556759585,Rural
USC00411956,30.3303,-95.4831,CONROE,9,0,0.0,64.34208745917535,Rural
USC00411970,33.3744,-95.6933,COOPER,9,0,0.0,403.0676056913367,Rural
USC00411990,31.1603,-97.9564,COPPERAS COVE 5 NW,9,0,0.0,292.7295446729214,Rural
USC00412011,27.7792,-97.5056,CORPUS CHRISTI NWS,9,9,100.0,303.03712632603043,Rural
USC00412013,27.6606,-97.3983,C C BOTANICAL GARDENS,9,0,0.0,305.9651282475793,Rural
USC00412017,31.0033,-94.8161,CORRIGAN 1 ENE,9,0,0.0,148.10661431956055,Rural
USC00412019,32.1225,-96.4867,CORSICANA,9,0,0.0,283.4595375542878,Rural
USC00412020,32.1183,-96.3256,CORSICANA 8 E,9,0,0.0,277.61285270701933,Rural
USC00412086,31.7731,-97.8264,CRANFILLS GAP,9,0,0.0,324.3087343778512,Rural
USC00412088,31.5333,-97.4525,CRAWFORD,9,0,0.0,280.2888334971733,Rural
USC00412096,32.5225,-97.6478,CRESSON,9,0,0.0,375.9392471364421,Rural
USC00412114,31.3072,-95.4508,CROCKETT,9,0,0.0,172.21473004962633,Rural
USC00412173,29.0892,-97.3433,CUERO,9,0,0.0,205.15202585200774,Rural
USC00412206,30.0211,-95.7069,CYPRESS,9,0,0.0,43.56324680127882,Coastal
USC00412218,30.4364,-95.7919,DACUS,9,0,0.0,85.46463651335469,Rural
USC00412225,32.9203,-94.7225,DAINGERFIELD 9 S,9,0,0.0,356.74634528411394,Rural
USC00412266,29.0661,-96.2583,DANEVANG 1 W,9,0,0.0,115.57033266453992,Rural
USC00412295,30.8014,-97.2689,DAVILLA 2N,9,0,0.0,215.99670452720326,Rural
USC00412334,33.2219,-97.5872,DECATUR,9,0,0.0,438.5776636639285,Rural
USC00412352,33.4797,-94.6175,DEKALB,9,9,100.0,419.69960952390994,Rural
USC00412404,33.1992,-97.105,DENTON 2 SE,9,0,0.0,416.29141200893224,Rural
USC00412444,31.8614,-95.2619,DIALVILLE 2 W,9,0,0.0,233.89291358192418,Rural
USC00412462,30.3558,-96.8289,DIME BOX,9,0,0.0,155.24959718689925,Rural
USC00412558,31.6481,-94.8997,DOUGLASS 1 S,9,9,100.0,214.70721839964662,Rural
USC00412585,30.2194,-97.9878,DRIPPING SPRINGS 6 E,9,0,0.0,257.230524925394,Rural
USC00412598,32.0628,-98.3047,DUBLIN 2SE,9,0,0.0,379.37495224050673,Rural
USC00412758,26.2981,-98.1575,EDINBURG,9,9,100.0,472.2237663962477,Rural
USC00412770,29.0622,-96.7714,EDNA 7 NW,9,0,0.0,156.35401490097817,Rural
USC00412772,32.3656,-95.6089,EDOM,9,0,0.0,290.6213953900571,Rural
USC00412786,29.2,-96.2653,EL CAMPO,9,0,0.0,106.71387370249901,Rural
USC00412820,30.3642,-97.37,ELGIN 1 N,9,0,0.0,203.85911210403813,Rural
USC00412902,32.8711,-95.7797,EMORY,9,9,100.0,348.1198543406777,Rural
USC00413000,30.3333,-94.0833,EVADALE,9,9,100.0,139.28995776907655,Rural
USC00413005,31.4625,-98.1619,EVANT 1SSW,9,0,0.0,327.42921309226193,Rural
USC00413047,31.7322,-96.2078,FAIRFIELD 3W,9,0,0.0,233.45433162575628,Rural
USC00413063,27.1353,-98.1203,FALFURRIAS,9,2,22.22,396.805532581697,Rural
USC00413065,28.9614,-98.1103,FALLS CITY 7 WSW,9,0,0.0,280.0113033242793,Rural
USC00413080,33.1414,-96.2933,FARMERSVILLE,9,0,0.0,386.0543792994362,Rural
USC00413112,30.2758,-97.0192,FEDOR 3SE,9,9,100.0,168.82401326308744,Rural
USC00413133,32.5339,-96.6608,FERRIS,9,0,0.0,331.9949868727792,Rural
USC00413156,29.9744,-98.2669,FISCHERS STORE,9,0,0.0,280.34496867499865,Rural
USC00413171,31.3089,-97.6306,FLAT,9,0,0.0,276.6436033258452,Rural
USC00413183,29.6339,-97.0644,FLATONIA 4SE,9,0,0.0,164.2607161043371,Rural
USC00413199,30.8394,-97.7928,FLORENCE,9,0,0.0,261.73301065962386,Rural
USC00413201,29.1333,-98.1628,FLORESVILLE,9,0,0.0,279.2525395055895,Rural
USC00413247,33.4661,-97.5797,FORESTBURG 5 S,9,0,0.0,462.14274079591195,Rural
USC00413285,32.8342,-97.2981,FT WORTH WSFO,9,0,0.0,387.80778673385817,Rural
USC00413289,32.8472,-97.4761,FT WORTH NATURE CTR,9,9,100.0,397.31423900184865,Rural
USC00413321,31.0328,-96.4889,FRANKLIN,9,0,0.0,177.61128115205196,Rural
USC00413340,28.9844,-95.3808,FREEPORT 2 NW,9,0,0.0,86.24913435810498,Rural
USC00413370,33.1925,-96.7931,FRISCO,9,0,0.0,404.8192977085747,Rural
USC00413485,31.4144,-97.7019,GATESVILLE,9,0,0.0,289.23711072479045,Rural
USC00413507,30.6764,-97.7208,GEORGETOWN LAKE,9,0,0.0,247.78996112241916,Rural
USC00413508,28.3064,-98.1222,GEORGE W 2 SSW,9,0,0.0,312.58704334341513,Rural
USC00413525,30.1872,-96.8594,GIDDINGS 5E,9,0,0.0,151.1220567426106,Rural
USC00413546,32.7464,-95.0497,GILMER 4 WNW,9,0,0.0,333.4647792467599,Rural
USC00413618,28.6617,-97.385,GOLIAD,9,0,0.0,230.55755992250968,Rural
USC00413620,28.6703,-97.3778,GOLIAD 1 E,9,0,0.0,229.45191307584938,Rural
USC00413622,29.4744,-97.4481,GONZALES 2S,9,0,0.0,203.37522186317028,Rural
USC00413624,29.4358,-97.5178,GONZALES 10 SW,9,0,0.0,210.76333777523283,Rural
USC00413639,32.5408,-98.3814,GORDON 1SW,9,0,0.0,421.53925016101334,Rural
USC00413675,32.5217,-97.8069,GRANBURY 5N,9,0,0.0,384.79477733167715,Rural
USC00413685,30.715,-97.4483,GRANGER,9,0,0.0,226.1317800665083,Rural
USC00413686,30.7189,-97.3211,GRANGER DAM,9,0,0.0,215.63125040825338,Rural
USC00413691,32.9506,-97.0553,GRAPEVINE DAM,9,0,0.0,389.18188416730635,Rural
USC00413734,33.1678,-96.0983,GREENVILLE KGVL RADIO,9,0,0.0,385.17076672121425,Rural
USC00413776,31.4406,-96.4825,GROESBECK 7SE,9,0,0.0,215.07580525944223,Rural
USC00413778,31.1964,-95.1461,GROVETON,9,9,100.0,161.15499176413437,Rural
USC00413846,33.3361,-95.2486,HAGANSPORT,9,0,0.0,397.81043268946,Rural
USC00413873,29.4706,-96.9397,HALLETTSVILLE 2 N,9,0,0.0,155.11417213405673,Rural
USC00413877,32.4478,-94.5956,HALLSVILLE 4 S,9,0,0.0,307.82633780750524,Rural
USC00413884,31.7089,-98.115,HAMILTON,9,0,0.0,340.26079889073685,Rural
USC00413941,32.6761,-94.5781,HARLETON,9,0,0.0,332.8811857906581,Rural
USC00413943,26.2028,-97.6728,HARLINGEN,9,0,0.0,455.58224982770037,Rural
USC00414020,32.5781,-95.2033,HAWKINS,9,0,0.0,313.75937663723056,Rural
USC00414076,31.35,-93.8333,HEMPHILL,9,9,100.0,230.01521515503185,Rural
USC00414077,31.4072,-93.7842,HEMPHILL 6 NE,9,0,0.0,237.88265848304422,Rural
USC00414081,32.1828,-94.7967,HENDERSON,9,0,0.0,274.8903425733252,Rural
USC00414137,31.9844,-98.0311,HICO,9,0,0.0,354.48826475959487,Rural
USC00414182,32.0161,-97.1094,HILLSBORO,9,0,0.0,300.7922739395992,Rural
USC00414202,32.7275,-95.1925,HOLLY LAKE RCH,9,0,0.0,330.4019407449176,Rural
USC00414313,29.8142,-95.7275,HOUSTON BARKER,9,0,0.0,35.02245307550987,Coastal
USC00414315,29.7283,-95.1306,HOUSTON DEER PARK,9,0,0.0,23.38009307005024,Coastal
USC00414321,29.7914,-95.4261,HOUSTON HTS,9,0,0.0,6.442604759410841,Coastal
USC00414325,29.7003,-95.4292,HOUSTON-WESTBURY,9,0,0.0,8.760315042075788,Coastal
USC00414326,29.7456,-95.28,HOUSTON-PORT,9,0,0.0,8.834609359496683,Coastal
USC00414327,29.8733,-95.5275,HOUSTON N HOUSTON,9,0,0.0,19.738330867388317,Coastal
USC00414333,29.4717,-95.0833,HOUSTON NWSO,9,0,0.0,42.37674630526714,Coastal
USC00414343,32.3389,-98.2972,HUCKABAY,9,0,0.0,399.94939471883265,Rural
USC00414382,30.7064,-95.5422,HUNTSVILLE,9,0,0.0,106.52722384767644,Rural
USC00414390,31.6544,-97.7086,HURST SPRINGS,9,0,0.0,307.16304328008664,Rural
USC00414505,32.0914,-97.1211,ITASCA 5SSW,9,0,0.0,308.37702036308303,Rural
USC00414517,33.2064,-98.1689,JACKSBORO,9,0,0.0,466.1034065329279,Rural
USC00414525,31.9622,-95.2736,JACKSONVILLE,9,2,22.22,245.04624259768696,Rural
USC00414531,29.1967,-94.9883,JAMAICA BEACH,9,0,0.0,72.72172692590557,Rural
USC00414556,30.8294,-97.6011,JARRELL,9,0,0.0,244.99237354878954,Rural
USC00414563,30.9153,-94.0097,JASPER,9,0,0.0,183.14932863823793,Rural
USC00414575,29.7664,-97.3164,JEDDO 3S,9,0,0.0,187.87847419557545,Rural
USC00414577,32.7692,-94.3592,JEFFERSON,9,9,100.0,348.1206380483937,Rural
USC00414597,32.6406,-96.9747,JOE POOL LAKE,9,0,0.0,354.7974987218,Rural
USC00414605,30.3,-98.4094,JOHNSON CITY 2N,9,0,0.0,298.6854830855766,Rural
USC00414679,33.0806,-97.2967,JUSTIN,9,0,0.0,411.992445016505,Rural
USC00414693,32.6664,-94.1781,KARNACK,9,0,0.0,342.4693703164784,Rural
USC00414696,28.9069,-97.8756,KARNES CITY 2N,9,0,0.0,260.7460328385821,Rural
USC00414704,29.8025,-95.8197,KATY CITY,9,0,0.0,43.656689452224164,Coastal
USC00414705,32.5589,-96.2725,KAUFMAN 3 SE,9,0,0.0,322.84909780633166,Rural
USC00414708,32.6139,-96.1394,KAUFMAN 13ENE,9,9,100.0,325.66625411908916,Rural
USC00414792,31.0658,-97.6919,KILLEEN,9,9,100.0,265.8058707271765,Rural
USC00414805,29.6833,-97.7672,KINGSBURY,9,0,0.0,231.6423102058342,Rural
USC00414810,27.5311,-97.8497,KINGSVILLE,9,0,0.0,346.3591909661165,Rural
USC00414866,32.1347,-97.4786,KOPPERL 5 NNE,9,0,0.0,331.88496230191157,Rural
USC00414878,30.375,-94.2994,KOUNTZE,9,0,0.0,123.65507134911236,Rural
USC00414903,29.9175,-96.8769,LA GRANGE,9,0,0.0,146.39629842096994,Rural
USC00414911,26.3233,-98.3233,LA JOYA,9,0,0.0,479.57340767647673,Rural
USC00414972,33.225,-97.8317,LAKE BRIDGEPORT DAM,9,0,0.0,450.43496516653926,Rural
USC00414976,32.8228,-95.5278,LAKE FK RSVR,9,0,0.0,340.89757032395835,Rural
USC00414979,32.6433,-98.3181,LAKE PALO PINTO,9,0,0.0,425.87757218697345,Rural
USC00414980,32.8522,-95.8864,LAKE TAWAKONI,9,0,0.0,347.3176793384269,Rural
USC00415018,31.0717,-98.1847,LAMPASAS,9,0,0.0,306.77765741912873,Rural
USC00415094,33.0353,-96.4861,LAVON DAM,9,0,0.0,379.28135679274317,Rural
USC00415116,32.3,-98.4028,LEATHERWOOD RCH,9,9,100.0,404.03145476938937,Rural
USC00415192,33.0694,-97.0094,LEWISVILLE DAM,9,0,0.0,399.50399843301807,Rural
USC00415193,30.4064,-97.0133,LEXINGTON,9,0,0.0,173.68072487029207,Rural
USC00415196,30.0592,-94.795,LIBERTY,9,0,0.0,64.64042356194118,Rural
USC00415229,33.0161,-94.3675,LINDEN,9,0,0.0,374.35134950904273,Rural
USC00415243,32.5686,-98.0825,LIPAN 4NW,9,0,0.0,405.10644752582675,Rural
USC00415271,30.7394,-94.9256,LIVINGSTON 2 NNE,9,0,0.0,116.97094282688808,Rural
USC00415285,29.8569,-97.6958,LOCKHART 2SW,9,0,0.0,224.6547557334527,Rural
USC00415341,32.4725,-94.7172,LONGVIEW,9,0,0.0,307.94922618477096,Rural
USC00415344,32.5183,-94.7189,LONGVIEW #2,9,0,0.0,312.9037785532352,Rural
USC00415415,31.4269,-94.8942,LUFKIN 11 NW,9,0,0.0,190.86302824452068,Rural
USC00415427,31.3417,-94.7325,LUFKIN #2,9,2,22.22,186.16890998568323,Rural
USC00415429,29.6756,-97.6578,LULING,9,0,0.0,221.12911864225572,Rural
USC00415430,29.8403,-97.5672,LULING 12 NE,9,0,0.0,212.19466293559543,Rural
USC00415435,30.2503,-94.1783,LUMBERTON,9,0,0.0,127.04343252326383,Rural
USC00415477,30.9392,-95.9203,MADISONVILLE,9,0,0.0,141.35376204264372,Rural
USC00415528,31.9442,-96.8464,MALONE 3ENE,9,9,100.0,280.7932825187813,Rural
USC00415611,31.305,-96.8767,MARLIN,9,0,0.0,224.3557432129151,Rural
USC00415618,32.4892,-94.3289,MARSHALL,9,0,0.0,319.2379210342962,Rural
USC00415659,28.6836,-95.9733,MATAGORDA #2,9,3,33.33,133.2413045707233,Rural
USC00415661,28.0372,-97.8725,MATHIS 4 SSW,9,0,0.0,309.89534208707465,Rural
USC00415667,33.3322,-94.3436,MAUD,9,2,22.22,408.93755276187215,Rural
USC00415695,32.3117,-97.0161,MAYPEARL,9,9,100.0,324.18282155911123,Rural
USC00415701,26.1922,-98.2503,MCALLEN,9,0,0.0,487.1751087746288,Rural
USC00415721,26.565,-98.1236,MCCOOK,9,0,0.0,446.14272624087215,Rural
USC00415757,31.435,-97.4011,MCGREGOR,9,0,0.0,269.2121427762368,Rural
USC00415766,33.1828,-96.59,MCKINNEY MUNI AP,9,9,100.0,397.78555077625475,Rural
USC00415836,26.0619,-97.8997,MERCEDES 6 SSE,9,0,0.0,480.456567709024,Rural
USC00415845,31.93,-97.6608,MERIDIAN,9,0,0.0,325.6330569798915,Rural
USC00415869,31.6181,-96.4497,MEXIA,9,9,100.0,230.96616195631975,Rural
USC00415897,32.4917,-96.9992,MIDLOTHIAN,9,0,0.0,341.0337405452147,Rural
USC00415904,31.0706,-95.715,MIDWAY 4 NE,9,0,0.0,149.439649620995,Rural
USC00415954,32.635,-95.4822,MINEOLA,9,0,0.0,319.86341231067064,Rural
USC00416024,30.3908,-95.6969,MONTGOMERY,9,0,0.0,76.8720364554098,Rural
USC00416058,32.0139,-97.6131,MORGAN,9,0,0.0,329.56734209955374,Rural
USC00416060,32.3842,-98.1703,MORGAN MILL,9,9,100.0,395.2797986359248,Rural
USC00416108,33.1631,-95.0097,MT PLEASANT,9,0,0.0,379.94647190124124,Rural
USC00416119,33.1964,-95.2236,MT VERNON,9,0,0.0,382.362215120309,Rural
USC00416177,31.6164,-94.6431,NACOGDOCHES,9,0,0.0,217.8087826565188,Rural
USC00416210,31.9611,-96.6881,NAVARRO MILLS DAM,9,0,0.0,275.1877826887847,Rural
USC00416265,31.6503,-94.1519,NEUVILLE,9,9,100.0,240.29218445647982,Rural
USC00416270,33.4547,-94.4089,NEW BOSTON,9,2,22.22,420.785746922596,Rural
USC00416276,29.6597,-98.1636,NEW BRAUNFELS,9,0,0.0,270.0239357521322,Rural
USC00416280,30.1375,-95.1783,NEW CANEY 2 E,9,0,0.0,45.859808092056085,Coastal
USC00416331,33.4561,-98.0253,NEWPORT 1SW,9,9,100.0,481.7579961250372,Rural
USC00416335,31.9747,-95.1381,NEW SUMMERFIELD 2W,9,0,0.0,247.25581484286747,Rural
USC00416341,30.8331,-93.7369,NEWTON,9,0,0.0,197.02735077677096,Rural
USC00416367,31.1083,-98.3803,NIX STORE 1 W,9,0,0.0,325.20644402624396,Rural
USC00416368,29.2828,-97.7675,NIXON,9,9,100.0,237.964931072357,Rural
USC00416496,31.5914,-95.8442,OAKWOOD,9,0,0.0,208.6300662194523,Rural
USC00416649,33.1836,-94.7792,OMAHA 2 W,9,9,100.0,384.7855840349655,Rural
USC00416664,30.0858,-93.7417,ORANGE,9,0,0.0,161.04886224817335,Rural
USC00416680,30.2267,-93.7389,ORANGE 9 N,9,0,0.0,165.42972483698895,Rural
USC00416766,32.7664,-98.3083,PALO PINTO,9,0,0.0,435.55688660325933,Rural
USC00417017,31.2789,-97.8883,PIDCOKE,9,0,0.0,294.45928759258493,Rural
USC00417020,29.2353,-96.1817,PIERCE 1 E,9,0,0.0,97.85286401132727,Rural
USC00417040,31.2447,-93.9658,PINELAND,9,0,0.0,212.95888191191443,Rural
USC00417066,32.9264,-94.9392,PITTSBURG 5 SSE,9,9,100.0,354.4553465818201,Rural
USC00417111,28.9606,-98.4772,PLEASANTON,9,9,100.0,313.95858448355705,Rural
USC00417140,28.6575,-96.5553,PT COMFORT,9,0,0.0,168.11414566130213,Rural
USC00417170,27.8139,-97.075,PORT ARANSAS,9,0,0.0,272.81897383789294,Rural
USC00417172,29.9044,-93.9708,PORT ARTHUR CITY,9,0,0.0,135.91773972388387,Rural
USC00417179,26.095,-97.3069,PORT ISABEL,9,0,0.0,449.7415537607414,Rural
USC00417183,28.6078,-96.6417,PORT LAVACA,9,0,0.0,177.91780011015234,Rural
USC00417184,26.5533,-97.4278,PORT MANSFIELD,9,0,0.0,409.65734308312227,Rural
USC00417186,28.4342,-96.4278,PORT O'CONNOR,9,9,100.0,179.70975397506012,Rural
USC00417300,31.9633,-98.4942,PROCTOR RSVR,9,0,0.0,385.90390819760455,Rural
USC00417365,32.7931,-95.435,QUITMAN 2,9,0,0.0,337.3218703517389,Rural
USC00417388,32.2619,-97.7064,RAINBOW,9,0,0.0,356.30742674704516,Rural
USC00417458,26.4644,-97.7847,RAYMONDVILLE,9,0,0.0,436.2850550429196,Rural
USC00417530,28.2939,-97.3297,REFUGIO 3 SW,9,0,0.0,250.75160118252393,Rural
USC00417533,28.3294,-97.2947,REFUGIO 2 NW,9,0,0.0,245.57691826505635,Rural
USC00417550,32.8136,-97.5756,REMUDA,9,0,0.0,398.99108387972865,Rural
USC00417586,30.5381,-95.8458,RICHARDS,9,9,100.0,97.87128156229993,Rural
USC00417588,32.9964,-96.7428,RICHARDSON,9,0,0.0,382.7293280150077,Rural
USC00417594,29.5839,-95.7553,RICHMOND,9,0,0.0,42.06148049705537,Coastal
USC00417659,33.005,-97.2331,ROANOKE,9,0,0.0,401.8181054636962,Rural
USC00417677,27.7894,-97.6619,ROBSTOWN,9,0,0.0,312.8915279215965,Rural
USC00417685,30.6431,-97.0372,ROCKDALE,9,0,0.0,187.91375758249498,Rural
USC00417704,28.0183,-97.0567,ROCKPORT,9,0,0.0,253.90698760912545,Rural
USC00417707,32.9331,-96.4647,ROCKWALL,9,0,0.0,367.8207821799901,Rural
USC00417744,31.0736,-96.9789,ROSEBUD,9,0,0.0,212.4488058563031,Rural
USC00417773,32.4578,-96.4558,ROSSER,9,0,0.0,317.28627341370947,Rural
USC00417787,30.4247,-98.3492,ROUND MTN,9,9,100.0,295.98794159989075,Rural
USC00417791,30.5414,-97.635,ROUND ROCK 3 NE,9,0,0.0,234.4685647606875,Rural
USC00417836,28.8297,-97.7133,RUNGE,9,0,0.0,249.67000849472677,Rural
USC00417841,31.8092,-95.1428,RUSK,9,0,0.0,228.8917297919737,Rural
USC00417936,31.0619,-94.1011,SAM RAYBURN DAM,9,0,0.0,189.1086867210224,Rural
USC00417947,29.4703,-98.4728,SAN ANTONIO INCARNATE WORD,9,0,0.0,301.6595746000027,Rural
USC00417951,31.5192,-94.1186,SAN AUGUSTINE,9,0,0.0,229.33805985310553,Rural
USC00417981,26.565,-98.1189,SAN MANUEL,9,9,100.0,445.86426258698526,Rural
USC00417983,29.8833,-97.9494,SAN MARCOS,9,0,0.0,249.20744100381975,Rural
USC00418059,26.2656,-97.8714,SANTA ROSA 3 WNW,9,0,0.0,459.60835744325203,Rural
USC00418081,27.2169,-97.6956,SARITA 7 E,9,0,0.0,362.77289843038835,Rural
USC00418126,29.6825,-96.8564,SCHULENBURG,9,0,0.0,143.79460386470518,Rural
USC00418187,29.5519,-97.9703,SEGUIN 1 SSW,9,0,0.0,252.32403854441972,Rural
USC00418311,30.3703,-94.2019,SILSBEE 4 N,9,0,0.0,131.30593188585112,Rural
USC00418354,28.1011,-97.5689,SINTON,9,0,0.0,282.5098885074176,Rural
USC00418415,30.0092,-97.1644,SMITHVILLE,9,0,0.0,175.20020367880977,Rural
USC00418446,30.3367,-96.5403,SOMERVILLE DAM,9,0,0.0,129.615168572421,Rural
USC00418487,26.1375,-97.1742,S PADRE IS,9,0,0.0,440.04266970682636,Rural
USC00418519,29.2728,-96.6858,SPEAKS 2,9,0,0.0,138.36619964215691,Rural
USC00418531,30.4814,-98.1606,SPICEWOOD,9,0,0.0,280.1215153859632,Rural
USC00418544,29.8653,-98.3797,SPRING BRANCH 2SE,9,0,0.0,290.6002304404384,Rural
USC00418646,31.0372,-97.5283,STILLHOUSE HOLLOW DAM,9,0,0.0,251.0238784304065,Rural
USC00418658,29.3258,-97.9753,STOCKDALE 6N,9,0,0.0,256.60828553329173,Rural
USC00418696,32.6592,-98.4678,STRAWN 8 NNE,9,0,0.0,436.664756687813,Rural
USC00418728,29.6197,-95.6575,SUGAR LAND,9,2,22.22,31.85350406783835,Coastal
USC00418743,33.1481,-95.6269,SULPHUR SPRINGS,9,0,0.0,377.5263281954006,Rural
USC00418862,30.5844,-97.4156,TAYLOR 1NW,9,0,0.0,216.95529576876578,Rural
USC00418929,32.7336,-96.3225,TERRELL,9,0,0.0,342.81803078331933,Rural
USC00418942,33.4367,-94.0772,TEXARKANA,9,0,0.0,426.75842200567865,Rural
USC00418996,29.4822,-95.6314,THOMPSONS 3 WSW,9,0,0.0,39.90796821687126,Coastal
USC00419001,30.6147,-97.2086,THORNDALE,9,0,0.0,200.64783671300742,Rural
USC00419004,31.3917,-96.5656,THORNTON 1SSE,9,0,0.0,214.51889167321664,Rural
USC00419007,28.5806,-98.1186,THREE RIVERS 9 NE,9,0,0.0,297.3371597379559,Rural
USC00419068,31.175,-93.5653,TOLEDO BEND DAM,9,0,0.0,233.81381286868617,Rural
USC00419076,30.1003,-95.6114,TOMBALL,9,0,0.0,44.41827014040444,Coastal
USC00419099,30.8836,-98.4708,TOW,9,0,0.0,322.7693681732681,Rural
USC00419101,30.7931,-94.1819,TOWN BLUFF DAM,9,0,0.0,161.9021693790605,Rural
USC00419125,33.4311,-96.3397,TRENTON,9,0,0.0,418.40451936916776,Rural
USC00419153,31.2061,-97.2956,TROY,9,0,0.0,244.74477318399744,Rural
USC00419207,32.3008,-95.3103,TYLER,9,0,0.0,282.5813089811376,Rural
USC00419282,31.6606,-97.4661,VALLEY MILLS,9,0,0.0,291.22236955676823,Rural
USC00419361,28.8608,-97.0181,VICTORIA FIRE DEPT #5,9,0,0.0,188.49858619060484,Rural
USC00419367,28.8439,-96.9214,VICTORIA RGNL AP,9,0,0.0,181.6763665877887,Rural
USC00419415,31.5481,-97.2072,WACO,9,0,0.0,265.351317656085,Rural
USC00419417,31.6003,-97.2169,WACO DAM,9,0,0.0,270.3015065213143,Rural
USC00419491,30.3236,-96.1594,WASHINGTON SP,9,0,0.0,98.49422637952142,Rural
USC00419503,32.525,-95.1306,WATERS BLUFF,9,2,22.22,308.29665870478124,Rural
USC00419504,30.9297,-98.0219,WATSON,9,0,0.0,285.77826353607554,Rural
USC00419522,32.4281,-96.8422,WAXAHACHIE,9,0,0.0,328.1180472814586,Rural
USC00419532,32.7478,-97.7703,WEATHERFORD,9,0,0.0,403.0001585191049,Rural
USC00419559,28.1136,-97.4178,WELDER WILDLIFE FOUNDATION,9,0,0.0,270.5922518462231,Rural
USC00419588,26.1781,-97.9708,WESLACO,9,3,33.33,473.10768078901003,Rural
USC00419593,31.8119,-97.0797,W,9,0,0.0,280.57909562209994,Rural
USC00419655,29.3178,-96.0847,WHARTON,9,9,100.0,84.84225601133251,Rural
USC00419708,32.2039,-95.2342,WHITEHOUSE 3 S,9,0,0.0,272.0573753141904,Rural
USC00419709,32.5164,-94.8914,WHITE OAK 1 WSW,9,0,0.0,309.8626051200515,Rural
USC00419715,31.8611,-97.375,WHITNEY DAM,9,0,0.0,302.0580410602444,Rural
USC00419717,28.6314,-98.2775,WHITSETT,9,0,0.0,308.8557167739501,Rural
USC00419754,30.5347,-94.4456,WILDWOOD,9,9,100.0,123.77736260421365,Rural
USC00419800,32.7019,-96.015,WILLS PT,9,0,0.0,332.8207155453241,Rural
USC00419815,30.0017,-98.1047,WIMBERLEY 1 NW,9,0,0.0,265.02040653282546,Rural
USC00419836,33.025,-95.2411,WINNSBORO 5 NNE,9,0,0.0,363.25741954952105,Rural
USC00419859,33.3675,-96.0675,WOLFE CITY,9,9,100.0,406.53892194238296,Rural
USC00419898,30.7678,-94.4117,WOODVILLE,9,0,0.0,145.01039663303942,Rural
USC00419916,33.3039,-94.1583,WRIGHT PATMAN DM & LK,9,0,0.0,410.4455994789276,Rural
USC00419952,29.2739,-97.1556,YOAKUM,9,9,100.0,181.03468710676322,Rural
USC00419953,28.9803,-97.5186,YORKTOWN,9,0,0.0,225.5299698035328,Rural
USC00419962,30.9597,-97.7183,YOUNGSPORT,9,0,0.0,261.8306764919742,Rural
USW00003855,30.35,-87.3167,PENSACOLA FOREST SHERMAN NAS,9,9,100.0,181.61801855736903,Rural
USW00003866,32.55,-88.5667,MERIDIAN NAAS,9,1,11.11,268.1335199084078,Rural
USW00003881,32.8661,-87.2383,CENTREVILLE 6 SW,9,0,0.0,349.9131990190833,Rural
USW00003901,32.3908,-94.7139,LONGVIEW E TX RGNL AP,9,0,0.0,299.12821895717303,Rural
USW00003902,31.0667,-97.8333,ROBERT GRAY AAF,9,9,100.0,277.31281033569496,Rural
USW00003904,30.5911,-96.3631,COLLEGE STN EASTERWOOD FLD,9,0,0.0,132.86563854060557,Rural
USW00003927,32.8975,-97.0219,DAL-FTW WSCMO AP,9,0,0.0,382.51506621199394,Rural
USW00003931,31.05,-93.1833,FT POLK AAF,9,9,100.0,254.06366296464788,Rural
USW00003933,31.1333,-97.7167,FT HOOD,9,9,100.0,271.87815247885834,Rural
USW00003937,30.1253,-93.2158,LAKE CHARLES,9,0,0.0,211.4976562597433,Rural
USW00003940,32.3197,-90.0778,JACKSON INTL AP,9,0,0.0,250.02878497148242,Rural
USW00003951,32.35,-94.65,LONGVIEW WSMO,9,0,0.0,296.04614662966463,Rural
USW00003969,32.2153,-98.1775,STEPHENVILLE CLARK FLD,9,0,0.0,382.27569869187533,Rural
USW00003971,32.6781,-96.8678,DALLAS REDBIRD AP,9,0,0.0,354.3483899205253,Rural
USW00003991,33.2089,-97.1992,DENTON MUNICPAL AP,9,0,0.0,420.8784270532316,Rural
USW00003996,32.3481,-91.03,TALLULAH VICKSBURG RGNL AP,9,0,0.0,295.45334477074573,Rural
USW00003999,30.7406,-98.2353,BURNET MUNI AP,9,0,0.0,296.0223165896889,Rural
USW00012884,29.3331,-89.4075,BOOTHVILLE ASOS,9,0,0.0,98.45355608702403,Rural
USW00012904,26.2303,-97.6556,HARLINGEN RIO GRANDE VLY INTL,9,0,0.0,452.0758990828457,Rural
USW00012911,29.5325,-98.2622,RANDOLPH AFB,9,9,100.0,280.63433531504313,Rural
USW00012912,28.8625,-96.93,VICTORIA RGNL AP,9,0,0.0,181.20890532019553,Rural
USW00012916,29.9975,-90.2778,NEW ORLEANS AP,9,0,0.0,106.10245318770627,Inland
USW00012917,29.9519,-94.0261,PORT ARTHUR SE TX RGNL AP,9,0,0.0,131.34586051036746,Rural
USW00012918,29.6458,-95.2822,HOUSTON WILLIAM P HOBBY AP,9,0,0.0,15.269691012471727,Coastal
USW00012921,29.5442,-98.4839,SAN ANTONIO INTL AP,9,0,0.0,301.8527480286022,Rural
USW00012923,29.2703,-94.8642,GALVESTON SCHOLES FLD,9,0,0.0,73.21528008671244,Rural
USW00012924,27.7839,-97.5114,CORPUS CHRISTI,9,0,0.0,303.04330333383064,Rural
USW00012926,27.6878,-97.2917,CORPUS CHRISTI NAS,9,0,0.0,296.98313948153543,Rural
USW00012928,27.5089,-97.8042,KINGSVILLE NAAS,9,1,11.11,345.07621505227684,Rural
USW00012930,29.9167,-90.1303,NEW ORLEANS AUDUBON,9,0,0.0,94.91270196208886,Inland
USW00012932,27.7414,-98.025,ALICE INTL AP,9,0,0.0,342.5744807415349,Rural
USW00012935,28.7247,-96.2536,PALACIOS MUNI AP,9,0,0.0,143.53388791017562,Rural
USW00012944,29.3,-94.8,GALVESTON,9,3,33.33,75.21652447838589,Rural
USW00012946,27.7,-97.4333,CORPUS CHRISTI CABANISS FLD,9,9,100.0,304.85264754428744,Rural
USW00012957,26.1597,-97.3378,PORT ISABEL CAMERON CO AP,9,0,0.0,444.51958363028615,Rural
USW00012958,29.8167,-90.0167,NEW ORLEANS ALVIN CALLENDER FL,9,0,0.0,89.44648856897119,Inland
USW00012959,26.1792,-98.2444,MCALLEN MILLER INTL AP,9,0,0.0,488.0273461734135,Rural
USW00012960,29.9844,-95.3608,HOUSTON INTERCONTINENTAL AP,9,0,0.0,24.967904814574098,Coastal
USW00012968,29.5589,-91.525,SALT PT,9,0,0.0,235.21979371008914,Rural
USW00012970,29.3389,-98.4719,SAN ANTONIO STINSON MUNI AP,9,0,0.0,303.6739479002469,Rural
USW00012971,29.7042,-98.0286,AUSTIN SAN ANTONIO,9,0,0.0,256.77449890713444,Rural
USW00012972,28.0836,-97.0467,ROCKPORT ARANSAS CO AP,9,0,0.0,247.73736430054842,Rural
USW00012975,29.5192,-95.2422,HOUSTON CLOVER FLD,9,0,0.0,29.48718374760866,Coastal
USW00012976,29.1153,-95.4633,ANGLETON LK JACKSON BRAZORIA C,9,0,0.0,72.25447597627932,Rural
USW00012977,29.6197,-95.6575,HOUSTON SUGARLAND MEM,9,0,0.0,31.85350406783835,Coastal
USW00012987,26.5258,-98.0633,EDINBURG 17 NNE,9,0,0.0,446.12727121157934,Rural
USW00013833,31.2694,-89.2561,HATTIESBURG CHAIN MUNI AP,9,0,0.0,119.03267184328458,Rural
USW00013838,30.6147,-88.0631,MOBILE DWTN AP,9,0,0.0,118.37821422561993,Rural
USW00013865,32.3347,-88.7508,MERIDIAN KEY FLD,9,0,0.0,241.17587580605715,Rural
USW00013894,30.6794,-88.24,MOBILE,9,0,0.0,106.35608441522754,Rural
USW00013899,30.4761,-87.1858,PENSACOLA RGNL AP,9,0,0.0,195.71858990805836,Rural
USW00013904,30.1831,-97.68,AUSTIN BERGSTROM INTL AP,9,0,0.0,227.42586248866573,Rural
USW00013911,32.7667,-97.45,FT WORTH NAS,9,0,0.0,388.38374045435205,Rural
USW00013927,32.3375,-90.2214,JACKSON HAWKINS FLD,9,0,0.0,256.735147556601,Rural
USW00013935,31.3964,-92.2828,ALEXANDRIA ESLER FLD,9,0,0.0,323.0892525110177,Rural
USW00013939,33.4939,-90.9806,GREENVILLE ASOS,9,0,0.0,403.0133121296805,Rural
USW00013942,32.5156,-92.03,MONROE RGNL AP,9,0,0.0,372.13141707333324,Rural
USW00013957,32.4508,-93.8414,SHREVEPORT,9,0,0.0,332.70734706853875,Rural
USW00013958,30.3208,-97.7603,AUSTIN-CAMP MABRY,9,0,0.0,238.3810913692576,Rural
USW00013959,31.6181,-97.2283,WACO RGNL AP,9,0,0.0,272.501629755877,Rural
USW00013960,32.8383,-96.8358,DALLAS FAA AP,9,0,0.0,369.5255298285152,Rural
USW00013961,32.8247,-97.3642,FT WORTH MEACHAM FLD,9,0,0.0,389.89330748629686,Rural
USW00013970,30.5378,-91.1469,BATON ROUGE METRO AP,9,0,0.0,190.5176535850019,Rural
USW00013972,32.3586,-95.4039,TYLER POUNDS FLD,9,0,0.0,288.969172214739,Rural
USW00013976,30.1986,-91.9894,LAFAYETTE RGNL AP,9,0,0.0,268.06488528253306,Rural
USW00013977,33.4561,-93.9878,TEXARKANA WEBB FLD,9,0,0.0,431.3131291120214,Rural
USW00013978,33.4961,-90.0894,GREENWOOD LEFLORE AP,9,0,0.0,376.0084758073988,Rural
USW00053820,31.4192,-87.0483,EVERGREEN MIDDLETON FLD,9,0,0.0,246.1737779114674,Rural
USW00053858,30.4631,-88.5317,PASCAGOULA LOTT INTL AP,9,0,0.0,70.49639938682596,Rural
USW00053865,30.3436,-89.8225,SLIDELL AP,9,0,0.0,61.87608604247395,Rural
USW00053902,30.3611,-95.4175,CONROE MONTGOMERY CO AP,9,0,0.0,66.99540932274499,Rural
USW00053903,30.7444,-95.5867,HUNTSVILLE MUNI AP,9,0,0.0,111.42160637345665,Rural
USW00053905,32.5397,-93.7461,SHREVEPORT DWTN AP,9,0,0.0,345.5522782539614,Rural
USW00053907,32.6583,-97.095,ARLINGTON MUNI AP,9,0,0.0,361.6111729030697,Rural
USW00053909,32.9944,-97.3203,FT WORTH ALLIANCE AP,9,0,0.0,404.48396167628283,Rural
USW00053910,30.0681,-95.5564,HOUSTON HOOKS MEM AP,9,0,0.0,38.6838980439984,Coastal
USW00053911,32.7131,-96.2689,TERRELL MUNI AP,9,0,0.0,339.3040152089273,Rural
USW00053912,32.0317,-96.3994,CORSICANA CAMPBELL FLD,9,0,0.0,271.0209708418279,Rural
USW00053914,33.1828,-96.59,MCKINNEY MUNI AP,9,0,0.0,397.78555077625475,Rural
USW00053915,30.0292,-91.8844,NEW IBERIA AP - ACADIANA RGNL,9,0,0.0,258.89374972146413,Rural
USW00053917,30.0494,-90.0289,NEW ORLEANS LAKEFRONT AP,9,0,0.0,81.46022729094462,Inland
USW00053960,30.0917,-91.8731,LAFAYETTE 13 SE,9,0,0.0,257.310045870285,Rural
USW00053961,32.8833,-92.1164,MONROE 26 N,9,0,0.0,406.66334204501584,Rural
USW00053968,31.7797,-95.7233,PALESTINE 6 WNW,9,0,0.0,227.10241356820111,Rural
USW00053972,32.0836,-97.0972,HILLSBORO MUNI AP,9,9,100.0,306.42059571626356,Rural
USW00063831,32.3378,-89.0703,NEWTON 5 ENE,9,0,0.0,238.0318435199239,Rural
USW00093806,33.2122,-87.6156,TUSCALOOSA AP ASOS,9,0,0.0,366.9323380865535,Rural
USW00093841,30.7167,-87.0167,WHITING FLD NAS,9,9,100.0,217.00805164858156,Rural
USW00093874,30.4122,-89.0808,GULFPORT - BILOXI AP,9,0,0.0,26.223939990405775,Coastal
USW00093904,32.8167,-97.35,FT WORTH MEACHAM FLD NAAF,9,9,100.0,388.46513170221823,Rural
USW00093914,31.7831,-95.6039,PALESTINE 2 NE,9,0,0.0,226.0654373871718,Rural
USW00093915,31.3347,-92.5586,ALEXANDRIA INTL AP,9,0,0.0,321.136864361814,Rural
USW00093919,31.1822,-90.4719,MCCOMB AP,9,0,0.0,163.45753276177533,Rural
USW00093985,32.7817,-98.0603,MINERAL WELLS AP,9,0,0.0,422.1799101121027,Rural
USW00093987,31.2358,-94.7547,LUFKIN ANGELINA CO AP,9,0,0.0,174.36823298467866,Rural
USW00093992,33.2208,-92.8142,EL DORADO GOODWIN FLD,9,0,0.0,454.7266451366442,Rural
